{
"type": "FeatureCollection",
"crs": { "type": "name", "properties": { "name": "urn:ogc:def:crs:OGC:1.3:CRS84" } },
                                                                                
"features": [
{ "type": "Feature", "properties": { "TYPE": "C", "NAME": "Sutton Brook Falls", "WIDTH": 5, "DROP_": 0, "SLOPE": 0, "WALLHT": 0, "RAREPLANT": "F", "FLOWREG": "F", "PRIVACY": 2, "TIDY": 1, "SWIM": 0 }, "geometry": { "type": "Point", "coordinates": [ -72.040076, 44.318404 ] } },
{ "type": "Feature", "properties": { "TYPE": "C", "NAME": "Barnet Falls", "WIDTH": 6, "DROP_": 0, "SLOPE": 0, "WALLHT": 0, "RAREPLANT": "F", "FLOWREG": "F", "PRIVACY": 1, "TIDY": 2, "SWIM": 0 }, "geometry": { "type": "Point", "coordinates": [ -72.049678, 44.29612 ] } },
{ "type": "Feature", "properties": { "TYPE": "W", "NAME": "Boltonville Falls", "WIDTH": 50, "DROP_": 41, "SLOPE": 0, "WALLHT": 30, "RAREPLANT": "N", "FLOWREG": "N", "PRIVACY": 1, "TIDY": 2, "SWIM": 2 }, "geometry": { "type": "Point", "coordinates": [ -72.099173, 44.170626 ] } },
{ "type": "Feature", "properties": { "TYPE": "W", "NAME": "Glen Falls", "WIDTH": 40, "DROP_": 55, "SLOPE": 0, "WALLHT": 30, "RAREPLANT": "Y", "FLOWREG": "N", "PRIVACY": 3, "TIDY": 1, "SWIM": 0 }, "geometry": { "type": "Point", "coordinates": [ -72.161071, 43.919921 ] } },
{ "type": "Feature", "properties": { "TYPE": "C", "NAME": "Covered Bridge Falls", "WIDTH": 30, "DROP_": 45, "SLOPE": 0, "WALLHT": 0, "RAREPLANT": "N", "FLOWREG": "N", "PRIVACY": 1, "TIDY": 1, "SWIM": 1 }, "geometry": { "type": "Point", "coordinates": [ -72.251895, 43.831558 ] } },
{ "type": "Feature", "properties": { "TYPE": "C", "NAME": "Union Village Upper Falls", "WIDTH": 6, "DROP_": 4, "SLOPE": 0, "WALLHT": 10, "RAREPLANT": "N", "FLOWREG": "N", "PRIVACY": 3, "TIDY": 1, "SWIM": 2 }, "geometry": { "type": "Point", "coordinates": [ -72.251281, 43.822554 ] } },
{ "type": "Feature", "properties": { "TYPE": "C", "NAME": "West Branch Falls", "WIDTH": 30, "DROP_": 5, "SLOPE": 0, "WALLHT": 0, "RAREPLANT": "N", "FLOWREG": "N", "PRIVACY": 3, "TIDY": 1, "SWIM": 2 }, "geometry": { "type": "Point", "coordinates": [ -72.270468, 43.809982 ] } },
{ "type": "Feature", "properties": { "TYPE": "C", "NAME": "Union Village Lower Falls", "WIDTH": 35, "DROP_": 6, "SLOPE": 0, "WALLHT": 0, "RAREPLANT": "N", "FLOWREG": "N", "PRIVACY": 3, "TIDY": 1, "SWIM": 1 }, "geometry": { "type": "Point", "coordinates": [ -72.260594, 43.806419 ] } },
{ "type": "Feature", "properties": { "TYPE": "G", "NAME": "Quechee Village Falls", "WIDTH": 50, "DROP_": 0, "SLOPE": 40, "WALLHT": 25, "RAREPLANT": "Y", "FLOWREG": "Y", "PRIVACY": 1, "TIDY": 2, "SWIM": 1 }, "geometry": { "type": "Point", "coordinates": [ -72.418578, 43.645568 ] } },
{ "type": "Feature", "properties": { "TYPE": "G", "NAME": "Quechee Gorge", "WIDTH": 200, "DROP_": 0, "SLOPE": 60, "WALLHT": 150, "RAREPLANT": "Y", "FLOWREG": "Y", "PRIVACY": 3, "TIDY": 2, "SWIM": 2 }, "geometry": { "type": "Point", "coordinates": [ -72.408592, 43.636735 ] } },
{ "type": "Feature", "properties": { "TYPE": "C", "NAME": "North Hartland Falls", "WIDTH": 0, "DROP_": 25, "SLOPE": 0, "WALLHT": 0, "RAREPLANT": "N", "FLOWREG": "Y", "PRIVACY": 1, "TIDY": 2, "SWIM": 2 }, "geometry": { "type": "Point", "coordinates": [ -72.349647, 43.593714 ] } },
{ "type": "Feature", "properties": { "TYPE": "W", "NAME": "Sumner Falls", "WIDTH": 0, "DROP_": 3, "SLOPE": 0, "WALLHT": 0, "RAREPLANT": "Y", "FLOWREG": "Y", "PRIVACY": 3, "TIDY": 2, "SWIM": 3 }, "geometry": { "type": "Point", "coordinates": [ -72.380244, 43.564194 ] } },
{ "type": "Feature", "properties": { "TYPE": "G", "NAME": "Lulls Brook Gorge", "WIDTH": 20, "DROP_": 0, "SLOPE": 90, "WALLHT": 50, "RAREPLANT": "N", "FLOWREG": "Y", "PRIVACY": 3, "TIDY": 2, "SWIM": 1 }, "geometry": { "type": "Point", "coordinates": [ -72.401505, 43.537226 ] } },
{ "type": "Feature", "properties": { "TYPE": "G", "NAME": "Bellows Falls", "WIDTH": 300, "DROP_": 0, "SLOPE": 0, "WALLHT": 40, "RAREPLANT": "N", "FLOWREG": "Y", "PRIVACY": 1, "TIDY": 3, "SWIM": 0 }, "geometry": { "type": "Point", "coordinates": [ -72.441965, 43.133123 ] } },
{ "type": "Feature", "properties": { "TYPE": "G", "NAME": "Saxtons River Falls", "WIDTH": 30, "DROP_": 0, "SLOPE": 0, "WALLHT": 30, "RAREPLANT": "N", "FLOWREG": "N", "PRIVACY": 1, "TIDY": 1, "SWIM": 3 }, "geometry": { "type": "Point", "coordinates": [ -72.441185, 43.124003 ] } },
{ "type": "Feature", "properties": { "TYPE": "C", "NAME": "Twin Falls", "WIDTH": 30, "DROP_": 30, "SLOPE": 0, "WALLHT": 20, "RAREPLANT": "N", "FLOWREG": "N", "PRIVACY": 1, "TIDY": 2, "SWIM": 3 }, "geometry": { "type": "Point", "coordinates": [ -72.463971, 43.12389 ] } },
{ "type": "Feature", "properties": { "TYPE": "C", "NAME": "Jelly Mill Falls", "WIDTH": 50, "DROP_": 30, "SLOPE": 0, "WALLHT": 0, "RAREPLANT": "N", "FLOWREG": "N", "PRIVACY": 1, "TIDY": 1, "SWIM": 1 }, "geometry": { "type": "Point", "coordinates": [ -72.615187, 42.917312 ] } },
{ "type": "Feature", "properties": { "TYPE": "G", "NAME": "Brockway Mills Gorge", "WIDTH": 75, "DROP_": 0, "SLOPE": 0, "WALLHT": 50, "RAREPLANT": "Y", "FLOWREG": "N", "PRIVACY": 1, "TIDY": 2, "SWIM": 3 }, "geometry": { "type": "Point", "coordinates": [ -72.51683, 43.208288 ] } },
{ "type": "Feature", "properties": { "TYPE": "W", "NAME": "Web Falls", "WIDTH": 10, "DROP_": 40, "SLOPE": 0, "WALLHT": 20, "RAREPLANT": "Y", "FLOWREG": "N", "PRIVACY": 0, "TIDY": 0, "SWIM": 0 }, "geometry": { "type": "Point", "coordinates": [ -72.760076, 44.029948 ] } },
{ "type": "Feature", "properties": { "TYPE": "C", "NAME": "Granville Cascade Chain", "WIDTH": 10, "DROP_": 15, "SLOPE": 0, "WALLHT": 15, "RAREPLANT": "Y", "FLOWREG": "N", "PRIVACY": 0, "TIDY": 0, "SWIM": 0 }, "geometry": { "type": "Point", "coordinates": [ -72.761652, 44.031391 ] } },
{ "type": "Feature", "properties": { "TYPE": "W", "NAME": "Old City Falls", "WIDTH": 15, "DROP_": 67, "SLOPE": 0, "WALLHT": 80, "RAREPLANT": "N", "FLOWREG": "N", "PRIVACY": 0, "TIDY": 0, "SWIM": 0 }, "geometry": { "type": "Point", "coordinates": [ -72.370605, 43.881091 ] } },
{ "type": "Feature", "properties": { "TYPE": "W", "NAME": "Texas Falls", "WIDTH": 5, "DROP_": 0, "SLOPE": 45, "WALLHT": 15, "RAREPLANT": "Y", "FLOWREG": "N", "PRIVACY": 0, "TIDY": 0, "SWIM": 0 }, "geometry": { "type": "Point", "coordinates": [ -72.900763, 43.934892 ] } },
{ "type": "Feature", "properties": { "TYPE": "C", "NAME": "Moss Glen Falls I", "WIDTH": 15, "DROP_": 25, "SLOPE": 0, "WALLHT": 30, "RAREPLANT": "Y", "FLOWREG": "N", "PRIVACY": 0, "TIDY": 0, "SWIM": 0 }, "geometry": { "type": "Point", "coordinates": [ -72.849937, 44.0181 ] } },
{ "type": "Feature", "properties": { "TYPE": "W", "NAME": "Sheldon Falls", "WIDTH": 50, "DROP_": 0, "SLOPE": 0, "WALLHT": 35, "RAREPLANT": "Y", "FLOWREG": "Y", "PRIVACY": 1, "TIDY": 2, "SWIM": 0 }, "geometry": { "type": "Point", "coordinates": [ -72.973327, 44.911046 ] } },
{ "type": "Feature", "properties": { "TYPE": "W", "NAME": "Highgate Falls", "WIDTH": 50, "DROP_": 15, "SLOPE": 0, "WALLHT": 30, "RAREPLANT": "N", "FLOWREG": "Y", "PRIVACY": 1, "TIDY": 3, "SWIM": 2 }, "geometry": { "type": "Point", "coordinates": [ -73.047599, 44.93432 ] } },
{ "type": "Feature", "properties": { "TYPE": null, "NAME": "Enosburg Falls (?)", "WIDTH": 0, "DROP_": 0, "SLOPE": 0, "WALLHT": 0, "RAREPLANT": null, "FLOWREG": null, "PRIVACY": 0, "TIDY": 0, "SWIM": 0 }, "geometry": { "type": "Point", "coordinates": [ -72.807349, 44.902355 ] } },
{ "type": "Feature", "properties": { "TYPE": "C", "NAME": "Fairfax Falls", "WIDTH": 200, "DROP_": 60, "SLOPE": 0, "WALLHT": 50, "RAREPLANT": "N", "FLOWREG": "Y", "PRIVACY": 1, "TIDY": 2, "SWIM": 2 }, "geometry": { "type": "Point", "coordinates": [ -72.989443, 44.650976 ] } },
{ "type": "Feature", "properties": { "TYPE": "W", "NAME": "Carver Falls", "WIDTH": 300, "DROP_": 60, "SLOPE": 0, "WALLHT": 80, "RAREPLANT": "Y", "FLOWREG": null, "PRIVACY": 2, "TIDY": 1, "SWIM": 3 }, "geometry": { "type": "Point", "coordinates": [ -73.309088, 43.626194 ] } },
{ "type": "Feature", "properties": { "TYPE": "C", "NAME": "Sucker Brook Cascade", "WIDTH": 0, "DROP_": 12, "SLOPE": 0, "WALLHT": 20, "RAREPLANT": "N", "FLOWREG": null, "PRIVACY": 5, "TIDY": 1, "SWIM": 3 }, "geometry": { "type": "Point", "coordinates": [ -73.176023, 43.678949 ] } },
{ "type": "Feature", "properties": { "TYPE": "G", "NAME": "Flower Brook Cascade", "WIDTH": 40, "DROP_": 0, "SLOPE": 0, "WALLHT": 30, "RAREPLANT": "N", "FLOWREG": "Y", "PRIVACY": 1, "TIDY": 1, "SWIM": 0 }, "geometry": { "type": "Point", "coordinates": [ -73.177544, 43.346667 ] } },
{ "type": "Feature", "properties": { "TYPE": "C", "NAME": "Sutherland Falls", "WIDTH": 200, "DROP_": 60, "SLOPE": 0, "WALLHT": 140, "RAREPLANT": "N", "FLOWREG": "Y", "PRIVACY": 1, "TIDY": 3, "SWIM": 0 }, "geometry": { "type": "Point", "coordinates": [ -73.03382, 43.662959 ] } },
{ "type": "Feature", "properties": { "TYPE": "G", "NAME": "Middlebury Gorge", "WIDTH": 0, "DROP_": 999, "SLOPE": 3, "WALLHT": 50, "RAREPLANT": "N", "FLOWREG": null, "PRIVACY": 5, "TIDY": 1, "SWIM": 3 }, "geometry": { "type": "Point", "coordinates": [ -73.081388, 43.971344 ] } },
{ "type": "Feature", "properties": { "TYPE": "G", "NAME": "Battell Gorge", "WIDTH": 20, "DROP_": 0, "SLOPE": 0, "WALLHT": 25, "RAREPLANT": "N", "FLOWREG": null, "PRIVACY": 2, "TIDY": 1, "SWIM": 0 }, "geometry": { "type": "Point", "coordinates": [ -73.176039, 44.05701 ] } },
{ "type": "Feature", "properties": { "TYPE": "W", "NAME": "Beldens Falls", "WIDTH": 50, "DROP_": 25, "SLOPE": 0, "WALLHT": 30, "RAREPLANT": "Y", "FLOWREG": null, "PRIVACY": 1, "TIDY": 1, "SWIM": 0 }, "geometry": { "type": "Point", "coordinates": [ -73.177565, 44.051562 ] } },
{ "type": "Feature", "properties": { "TYPE": "G", "NAME": "New Haven River Gorge", "WIDTH": 25, "DROP_": 12, "SLOPE": 0, "WALLHT": 30, "RAREPLANT": "N", "FLOWREG": null, "PRIVACY": 3, "TIDY": 2, "SWIM": 3 }, "geometry": { "type": "Point", "coordinates": [ -73.049958, 44.12843 ] } },
{ "type": "Feature", "properties": { "TYPE": "G", "NAME": "Bristol Memorial Forest Park Gorge", "WIDTH": 15, "DROP_": 15, "SLOPE": 0, "WALLHT": 40, "RAREPLANT": "N", "FLOWREG": "N", "PRIVACY": 2, "TIDY": 1, "SWIM": 0 }, "geometry": { "type": "Point", "coordinates": [ -73.018193, 44.162177 ] } },
{ "type": "Feature", "properties": { "TYPE": "C", "NAME": "Falls of Little Otter Creek", "WIDTH": 75, "DROP_": 8, "SLOPE": 0, "WALLHT": 0, "RAREPLANT": "N", "FLOWREG": null, "PRIVACY": 1, "TIDY": 2, "SWIM": 0 }, "geometry": { "type": "Point", "coordinates": [ -73.196171, 44.199196 ] } },
{ "type": "Feature", "properties": { "TYPE": "C", "NAME": "Lana Falls", "WIDTH": 25, "DROP_": 15, "SLOPE": 0, "WALLHT": 30, "RAREPLANT": "Y", "FLOWREG": null, "PRIVACY": 2, "TIDY": 1, "SWIM": 1 }, "geometry": { "type": "Point", "coordinates": [ -73.061672, 43.90598 ] } },
{ "type": "Feature", "properties": { "TYPE": "C", "NAME": "Ithiel Falls Gorge", "WIDTH": 100, "DROP_": 0, "SLOPE": 0, "WALLHT": 30, "RAREPLANT": "N", "FLOWREG": null, "PRIVACY": 1, "TIDY": 1, "SWIM": 0 }, "geometry": { "type": "Point", "coordinates": [ -72.728971, 44.651613 ] } },
{ "type": "Feature", "properties": { "TYPE": "C", "NAME": "Kelly River Falls", "WIDTH": 75, "DROP_": 5, "SLOPE": 0, "WALLHT": 30, "RAREPLANT": "N", "FLOWREG": null, "PRIVACY": 1, "TIDY": 1, "SWIM": 1 }, "geometry": { "type": "Point", "coordinates": [ -72.742761, 44.738129 ] } },
{ "type": "Feature", "properties": { "TYPE": "W", "NAME": "Dogs Head Falls", "WIDTH": 30, "DROP_": 6, "SLOPE": 0, "WALLHT": 15, "RAREPLANT": "N", "FLOWREG": null, "PRIVACY": 2, "TIDY": 2, "SWIM": 2 }, "geometry": { "type": "Point", "coordinates": [ -72.680477, 44.626409 ] } },
{ "type": "Feature", "properties": { "TYPE": "G", "NAME": "Terrill Gorge", "WIDTH": 10, "DROP_": 10, "SLOPE": 0, "WALLHT": 15, "RAREPLANT": "N", "FLOWREG": null, "PRIVACY": 5, "TIDY": 2, "SWIM": 4 }, "geometry": { "type": "Point", "coordinates": [ -72.620987, 44.5688 ] } },
{ "type": "Feature", "properties": { "TYPE": "G", "NAME": "Brewster River Gorge", "WIDTH": 35, "DROP_": 75, "SLOPE": 0, "WALLHT": 50, "RAREPLANT": "N", "FLOWREG": "N", "PRIVACY": 2, "TIDY": 2, "SWIM": 2 }, "geometry": { "type": "Point", "coordinates": [ -72.827424, 44.632512 ] } },
{ "type": "Feature", "properties": { "TYPE": "W", "NAME": "Seven Falls of the Huntington", "WIDTH": 15, "DROP_": 3, "SLOPE": 0, "WALLHT": 25, "RAREPLANT": "N", "FLOWREG": "N", "PRIVACY": 2, "TIDY": 2, "SWIM": 1 }, "geometry": { "type": "Point", "coordinates": [ -72.968735, 44.235466 ] } },
{ "type": "Feature", "properties": { "TYPE": "G", "NAME": "Middlesex Gorge", "WIDTH": 30, "DROP_": 0, "SLOPE": 0, "WALLHT": 60, "RAREPLANT": "N", "FLOWREG": null, "PRIVACY": 1, "TIDY": 2, "SWIM": 2 }, "geometry": { "type": "Point", "coordinates": [ -72.682934, 44.292293 ] } },
{ "type": "Feature", "properties": { "TYPE": "G", "NAME": "Wrightsville Gorge", "WIDTH": 20, "DROP_": 0, "SLOPE": 0, "WALLHT": 80, "RAREPLANT": "N", "FLOWREG": null, "PRIVACY": 1, "TIDY": 3, "SWIM": 0 }, "geometry": { "type": "Point", "coordinates": [ -72.574686, 44.310829 ] } },
{ "type": "Feature", "properties": { "TYPE": "W", "NAME": "Duck Brook Falls", "WIDTH": 10, "DROP_": 7, "SLOPE": 0, "WALLHT": 0, "RAREPLANT": "N", "FLOWREG": "N", "PRIVACY": 3, "TIDY": 1, "SWIM": 1 }, "geometry": { "type": "Point", "coordinates": [ -72.916158, 44.391504 ] } },
{ "type": "Feature", "properties": { "TYPE": "W", "NAME": "Devils Pothole", "WIDTH": 10, "DROP_": 15, "SLOPE": 0, "WALLHT": 0, "RAREPLANT": "N", "FLOWREG": "N", "PRIVACY": 2, "TIDY": 2, "SWIM": 2 }, "geometry": { "type": "Point", "coordinates": [ -72.875209, 44.375706 ] } },
{ "type": "Feature", "properties": { "TYPE": "W", "NAME": "Bolton Falls", "WIDTH": 100, "DROP_": 0, "SLOPE": 0, "WALLHT": 120, "RAREPLANT": "N", "FLOWREG": null, "PRIVACY": 2, "TIDY": 2, "SWIM": 2 }, "geometry": { "type": "Point", "coordinates": [ -72.816215, 44.359835 ] } },
{ "type": "Feature", "properties": { "TYPE": "W", "NAME": "Bingham Falls", "WIDTH": 20, "DROP_": 20, "SLOPE": 0, "WALLHT": 30, "RAREPLANT": "N", "FLOWREG": null, "PRIVACY": 2, "TIDY": 2, "SWIM": 3 }, "geometry": { "type": "Point", "coordinates": [ -72.767583, 44.518853 ] } },
{ "type": "Feature", "properties": { "TYPE": "G", "NAME": "Sterling Brook Gorge", "WIDTH": 25, "DROP_": 6, "SLOPE": 25, "WALLHT": 0, "RAREPLANT": "N", "FLOWREG": "N", "PRIVACY": 3, "TIDY": 1, "SWIM": 2 }, "geometry": { "type": "Point", "coordinates": [ -72.720937, 44.539437 ] } },
{ "type": "Feature", "properties": { "TYPE": "C", "NAME": "Cady Falls", "WIDTH": 0, "DROP_": 0, "SLOPE": 0, "WALLHT": 60, "RAREPLANT": "Y", "FLOWREG": null, "PRIVACY": 0, "TIDY": 0, "SWIM": 0 }, "geometry": { "type": "Point", "coordinates": [ -72.610946, 44.574176 ] } },
{ "type": "Feature", "properties": { "TYPE": "W", "NAME": "Moss Glen Falls II", "WIDTH": 12, "DROP_": 20, "SLOPE": 0, "WALLHT": 80, "RAREPLANT": "N", "FLOWREG": "N", "PRIVACY": 3, "TIDY": 2, "SWIM": 2 }, "geometry": { "type": "Point", "coordinates": [ -72.625671, 44.483388 ] } },
{ "type": "Feature", "properties": { "TYPE": "C", "NAME": "Hamilton Falls", "WIDTH": 25, "DROP_": 50, "SLOPE": 0, "WALLHT": 0, "RAREPLANT": "N", "FLOWREG": "N", "PRIVACY": 1, "TIDY": 1, "SWIM": 4 }, "geometry": { "type": "Point", "coordinates": [ -72.76736, 43.1329 ] } },
{ "type": "Feature", "properties": { "TYPE": "C", "NAME": "Rock River Cascades", "WIDTH": 30, "DROP_": 15, "SLOPE": 15, "WALLHT": 15, "RAREPLANT": "N", "FLOWREG": "N", "PRIVACY": 5, "TIDY": 1, "SWIM": 1 }, "geometry": { "type": "Point", "coordinates": [ -72.809001, 42.968344 ] } },
{ "type": "Feature", "properties": { "TYPE": "C", "NAME": "Pikes Falls", "WIDTH": 50, "DROP_": 7, "SLOPE": 0, "WALLHT": 0, "RAREPLANT": "N", "FLOWREG": "N", "PRIVACY": 3, "TIDY": 2, "SWIM": 3 }, "geometry": { "type": "Point", "coordinates": [ -72.852226, 43.097415 ] } },
{ "type": "Feature", "properties": { "TYPE": "C", "NAME": "Emerson Falls", "WIDTH": 40, "DROP_": 40, "SLOPE": 0, "WALLHT": 0, "RAREPLANT": "N", "FLOWREG": null, "PRIVACY": 1, "TIDY": 2, "SWIM": 1 }, "geometry": { "type": "Point", "coordinates": [ -72.038285, 44.434893 ] } },
{ "type": "Feature", "properties": { "TYPE": "C", "NAME": "Mill Brook Cascades", "WIDTH": 12, "DROP_": 200, "SLOPE": 0, "WALLHT": 6, "RAREPLANT": "N", "FLOWREG": "N", "PRIVACY": 3, "TIDY": 1, "SWIM": 0 }, "geometry": { "type": "Point", "coordinates": [ -71.882765, 44.671397 ] } },
{ "type": "Feature", "properties": { "TYPE": "G", "NAME": "Great Falls of the Clyde", "WIDTH": 60, "DROP_": 20, "SLOPE": 0, "WALLHT": 60, "RAREPLANT": "N", "FLOWREG": "Y", "PRIVACY": 1, "TIDY": 1, "SWIM": 0 }, "geometry": { "type": "Point", "coordinates": [ -72.055721, 44.885279 ] } },
{ "type": "Feature", "properties": { "TYPE": "G", "NAME": "Wardsboro Brook Ravine", "WIDTH": 25, "DROP_": 0, "SLOPE": 0, "WALLHT": 100, "RAREPLANT": "N", "FLOWREG": "N", "PRIVACY": 2, "TIDY": 1, "SWIM": 0 }, "geometry": { "type": "Point", "coordinates": [ -72.734792, 43.071578 ] } },
{ "type": "Feature", "properties": { "TYPE": "W", "NAME": "McIndoe Falls", "WIDTH": 100, "DROP_": 0, "SLOPE": 0, "WALLHT": 0, "RAREPLANT": "N", "FLOWREG": "Y", "PRIVACY": 1, "TIDY": 2, "SWIM": 2 }, "geometry": { "type": "Point", "coordinates": [ -72.059504, 44.261036 ] } },
{ "type": "Feature", "properties": { "TYPE": "G", "NAME": "Hemlock Gorge", "WIDTH": 0, "DROP_": 0, "SLOPE": 0, "WALLHT": 0, "RAREPLANT": "N", "FLOWREG": null, "PRIVACY": 2, "TIDY": 1, "SWIM": 0 }, "geometry": { "type": "Point", "coordinates": [ -73.264607, 42.826655 ] } },
{ "type": "Feature", "properties": { "TYPE": "C", "NAME": "Thundering Falls", "WIDTH": 15, "DROP_": 50, "SLOPE": 0, "WALLHT": 0, "RAREPLANT": "N", "FLOWREG": null, "PRIVACY": 2, "TIDY": 1, "SWIM": 1 }, "geometry": { "type": "Point", "coordinates": [ -72.787028, 43.680271 ] } },
{ "type": "Feature", "properties": { "TYPE": "G", "NAME": "Imaginary Falls", "WIDTH": 25, "DROP_": 0, "SLOPE": 0, "WALLHT": 0, "RAREPLANT": null, "FLOWREG": null, "PRIVACY": 1, "TIDY": 1, "SWIM": 1 }, "geometry": { "type": "Point", "coordinates": [ -73.08117, 43.051444 ] } },
{ "type": "Feature", "properties": { "TYPE": "C", "NAME": "Roaring Brook Cascade", "WIDTH": 15, "DROP_": 20, "SLOPE": 20, "WALLHT": 10, "RAREPLANT": "N", "FLOWREG": null, "PRIVACY": 1, "TIDY": 1, "SWIM": 0 }, "geometry": { "type": "Point", "coordinates": [ -73.082755, 42.774892 ] } },
{ "type": "Feature", "properties": { "TYPE": "W", "NAME": "Falls of Black River", "WIDTH": 60, "DROP_": 5, "SLOPE": 0, "WALLHT": 10, "RAREPLANT": "N", "FLOWREG": null, "PRIVACY": 1, "TIDY": 2, "SWIM": 2 }, "geometry": { "type": "Point", "coordinates": [ -72.263508, 44.869224 ] } },
{ "type": "Feature", "properties": { "TYPE": "W", "NAME": "Buttermilk Falls", "WIDTH": 100, "DROP_": 20, "SLOPE": 0, "WALLHT": 30, "RAREPLANT": "Y", "FLOWREG": null, "PRIVACY": 1, "TIDY": 2, "SWIM": 3 }, "geometry": { "type": "Point", "coordinates": [ -72.727943, 43.436677 ] } },
{ "type": "Feature", "properties": { "TYPE": "W", "NAME": "Shelburne Falls", "WIDTH": 50, "DROP_": 20, "SLOPE": 0, "WALLHT": 0, "RAREPLANT": "Y", "FLOWREG": null, "PRIVACY": 1, "TIDY": 1, "SWIM": 0 }, "geometry": { "type": "Point", "coordinates": [ -73.215151, 44.372234 ] } },
{ "type": "Feature", "properties": { "TYPE": "C", "NAME": "East Calais Cascades", "WIDTH": 15, "DROP_": 50, "SLOPE": 0, "WALLHT": 0, "RAREPLANT": "N", "FLOWREG": null, "PRIVACY": 1, "TIDY": 2, "SWIM": 0 }, "geometry": { "type": "Point", "coordinates": [ -72.431135, 44.365981 ] } },
{ "type": "Feature", "properties": { "TYPE": "G", "NAME": "Moretown Gorge", "WIDTH": 30, "DROP_": 0, "SLOPE": 0, "WALLHT": 25, "RAREPLANT": "N", "FLOWREG": "N", "PRIVACY": 3, "TIDY": 1, "SWIM": 1 }, "geometry": { "type": "Point", "coordinates": [ -72.76819, 44.24591 ] } },
{ "type": "Feature", "properties": { "TYPE": "G", "NAME": "Cavendish Gorge", "WIDTH": 100, "DROP_": 0, "SLOPE": 0, "WALLHT": 80, "RAREPLANT": "N", "FLOWREG": "Y", "PRIVACY": 2, "TIDY": 1, "SWIM": 3 }, "geometry": { "type": "Point", "coordinates": [ -72.597016, 43.381554 ] } },
{ "type": "Feature", "properties": { "TYPE": "G", "NAME": "Big Branch Ravine", "WIDTH": 25, "DROP_": 0, "SLOPE": 0, "WALLHT": 25, "RAREPLANT": "N", "FLOWREG": null, "PRIVACY": 4, "TIDY": 1, "SWIM": 0 }, "geometry": { "type": "Point", "coordinates": [ -72.971278, 43.356552 ] } },
{ "type": "Feature", "properties": { "TYPE": "C", "NAME": "Mollys Falls", "WIDTH": 25, "DROP_": 12, "SLOPE": 40, "WALLHT": 0, "RAREPLANT": "N", "FLOWREG": "Y", "PRIVACY": 2, "TIDY": 1, "SWIM": 0 }, "geometry": { "type": "Point", "coordinates": [ -72.338682, 44.358003 ] } },
{ "type": "Feature", "properties": { "TYPE": "C", "NAME": "Marshfield Falls", "WIDTH": 30, "DROP_": 50, "SLOPE": 0, "WALLHT": 0, "RAREPLANT": "N", "FLOWREG": null, "PRIVACY": 1, "TIDY": 2, "SWIM": 0 }, "geometry": { "type": "Point", "coordinates": [ -72.354752, 44.346677 ] } },
{ "type": "Feature", "properties": { "TYPE": "C", "NAME": "Woodbury Falls", "WIDTH": 5, "DROP_": 30, "SLOPE": 45, "WALLHT": 30, "RAREPLANT": "N", "FLOWREG": null, "PRIVACY": 2, "TIDY": 1, "SWIM": 0 }, "geometry": { "type": "Point", "coordinates": [ -72.400983, 44.475965 ] } },
{ "type": "Feature", "properties": { "TYPE": "C", "NAME": "Blake Falls", "WIDTH": 10, "DROP_": 8, "SLOPE": 0, "WALLHT": 0, "RAREPLANT": "N", "FLOWREG": null, "PRIVACY": 2, "TIDY": 1, "SWIM": 0 }, "geometry": { "type": "Point", "coordinates": [ -72.412158, 44.425383 ] } },
{ "type": "Feature", "properties": { "TYPE": "C", "NAME": "Bakers Falls", "WIDTH": 40, "DROP_": 25, "SLOPE": 0, "WALLHT": 0, "RAREPLANT": "Y", "FLOWREG": null, "PRIVACY": 1, "TIDY": 2, "SWIM": 0 }, "geometry": { "type": "Point", "coordinates": [ -72.397505, 44.91771 ] } },
{ "type": "Feature", "properties": { "TYPE": "W", "NAME": "Big Falls of the Missisquoi River", "WIDTH": 75, "DROP_": 25, "SLOPE": 0, "WALLHT": 60, "RAREPLANT": "Y", "FLOWREG": null, "PRIVACY": 3, "TIDY": 2, "SWIM": 3 }, "geometry": { "type": "Point", "coordinates": [ -72.385768, 44.972942 ] } },
{ "type": "Feature", "properties": { "TYPE": "C", "NAME": "Tillotson Mill", "WIDTH": 10, "DROP_": 4, "SLOPE": 0, "WALLHT": 0, "RAREPLANT": "N", "FLOWREG": null, "PRIVACY": 2, "TIDY": 1, "SWIM": 0 }, "geometry": { "type": "Point", "coordinates": [ -72.51502, 44.780339 ] } },
{ "type": "Feature", "properties": { "TYPE": "W", "NAME": "Baldin Brook Falls", "WIDTH": 20, "DROP_": 50, "SLOPE": 0, "WALLHT": 30, "RAREPLANT": "Y", "FLOWREG": null, "PRIVACY": 3, "TIDY": 1, "SWIM": 0 }, "geometry": { "type": "Point", "coordinates": [ -72.481057, 44.607666 ] } },
{ "type": "Feature", "properties": { "TYPE": "C", "NAME": "Willoughby River Falls", "WIDTH": 100, "DROP_": 4, "SLOPE": 0, "WALLHT": 0, "RAREPLANT": "N", "FLOWREG": null, "PRIVACY": 1, "TIDY": 2, "SWIM": 3 }, "geometry": { "type": "Point", "coordinates": [ -72.194159, 44.809664 ] } },
{ "type": "Feature", "properties": { "TYPE": "G", "NAME": "Huntington River Gorge", "WIDTH": 15, "DROP_": 5, "SLOPE": 0, "WALLHT": 50, "RAREPLANT": "N", "FLOWREG": null, "PRIVACY": 1, "TIDY": 2, "SWIM": 4 }, "geometry": { "type": "Point", "coordinates": [ -72.951146, 44.37506 ] } },
{ "type": "Feature", "properties": { "TYPE": "C", "NAME": "Upper Green River Falls", "WIDTH": 10, "DROP_": 20, "SLOPE": 0, "WALLHT": 25, "RAREPLANT": "N", "FLOWREG": null, "PRIVACY": 1, "TIDY": 1, "SWIM": 0 }, "geometry": { "type": "Point", "coordinates": [ -72.535226, 44.603042 ] } },
{ "type": "Feature", "properties": { "TYPE": "C", "NAME": "Lower Green River Falls", "WIDTH": 15, "DROP_": 0, "SLOPE": 0, "WALLHT": 0, "RAREPLANT": "N", "FLOWREG": null, "PRIVACY": 3, "TIDY": 1, "SWIM": 0 }, "geometry": { "type": "Point", "coordinates": [ -72.533253, 44.601132 ] } },
{ "type": "Feature", "properties": { "TYPE": "C", "NAME": "Gully Brook Ravine", "WIDTH": 0, "DROP_": 0, "SLOPE": 0, "WALLHT": 0, "RAREPLANT": "N", "FLOWREG": null, "PRIVACY": 5, "TIDY": 1, "SWIM": 0 }, "geometry": { "type": "Point", "coordinates": [ -73.132243, 43.591467 ] } },
{ "type": "Feature", "properties": { "TYPE": "G", "NAME": "Nelson Brook Gorge", "WIDTH": 40, "DROP_": 15, "SLOPE": 0, "WALLHT": 40, "RAREPLANT": "N", "FLOWREG": null, "PRIVACY": 2, "TIDY": 1, "SWIM": 0 }, "geometry": { "type": "Point", "coordinates": [ -72.390196, 44.180033 ] } },
{ "type": "Feature", "properties": { "TYPE": "G", "NAME": "Jay Branch Gorge", "WIDTH": 0, "DROP_": 15, "SLOPE": 0, "WALLHT": 15, "RAREPLANT": "Y", "FLOWREG": null, "PRIVACY": 2, "TIDY": 1, "SWIM": 0 }, "geometry": { "type": "Point", "coordinates": [ -72.425936, 44.963002 ] } },
{ "type": "Feature", "properties": { "TYPE": "G", "NAME": "Troy Four-Corners Swimming Hole", "WIDTH": 0, "DROP_": 15, "SLOPE": 0, "WALLHT": 15, "RAREPLANT": "Y", "FLOWREG": null, "PRIVACY": 2, "TIDY": 1, "SWIM": 0 }, "geometry": { "type": "Point", "coordinates": [ -72.411287, 44.960619 ] } },
{ "type": "Feature", "properties": { "TYPE": "C", "NAME": "Allen Brook Cascade", "WIDTH": 5, "DROP_": 20, "SLOPE": 0, "WALLHT": 0, "RAREPLANT": "N", "FLOWREG": null, "PRIVACY": 1, "TIDY": 2, "SWIM": 0 }, "geometry": { "type": "Point", "coordinates": [ -73.117835, 44.464412 ] } },
{ "type": "Feature", "properties": { "TYPE": "C", "NAME": "Frazer Falls", "WIDTH": 5, "DROP_": 20, "SLOPE": 0, "WALLHT": 0, "RAREPLANT": "N", "FLOWREG": null, "PRIVACY": 2, "TIDY": 2, "SWIM": 0 }, "geometry": { "type": "Point", "coordinates": [ -73.036963, 44.438213 ] } },
{ "type": "Feature", "properties": { "TYPE": "G", "NAME": "Williston Gorge", "WIDTH": 100, "DROP_": 0, "SLOPE": 0, "WALLHT": 35, "RAREPLANT": "Y", "FLOWREG": null, "PRIVACY": 1, "TIDY": 3, "SWIM": 0 }, "geometry": { "type": "Point", "coordinates": [ -73.116563, 44.481417 ] } },
{ "type": "Feature", "properties": { "TYPE": "W", "NAME": "North Branch Falls", "WIDTH": 50, "DROP_": 9, "SLOPE": 0, "WALLHT": 15, "RAREPLANT": "N", "FLOWREG": null, "PRIVACY": 1, "TIDY": 1, "SWIM": 3 }, "geometry": { "type": "Point", "coordinates": [ -72.535459, 44.429956 ] } },
{ "type": "Feature", "properties": { "TYPE": "W", "NAME": "Woods Falls", "WIDTH": 0, "DROP_": 15, "SLOPE": 0, "WALLHT": 60, "RAREPLANT": "N", "FLOWREG": null, "PRIVACY": 1, "TIDY": 1, "SWIM": 4 }, "geometry": { "type": "Point", "coordinates": [ -73.11759, 44.636681 ] } },
{ "type": "Feature", "properties": { "TYPE": "G", "NAME": "Clarendon Gorge", "WIDTH": 100, "DROP_": 0, "SLOPE": 0, "WALLHT": 75, "RAREPLANT": "N", "FLOWREG": null, "PRIVACY": 1, "TIDY": 2, "SWIM": 4 }, "geometry": { "type": "Point", "coordinates": [ -72.926959, 43.519055 ] } },
{ "type": "Feature", "properties": { "TYPE": "G", "NAME": "Lime Kiln Gorge", "WIDTH": 80, "DROP_": 0, "SLOPE": 0, "WALLHT": 70, "RAREPLANT": "N", "FLOWREG": null, "PRIVACY": 1, "TIDY": 2, "SWIM": 0 }, "geometry": { "type": "Point", "coordinates": [ -73.161769, 44.489958 ] } },
{ "type": "Feature", "properties": { "TYPE": "G", "NAME": "Winooski Falls", "WIDTH": 400, "DROP_": 20, "SLOPE": 0, "WALLHT": 0, "RAREPLANT": "Y", "FLOWREG": null, "PRIVACY": 1, "TIDY": 2, "SWIM": 0 }, "geometry": { "type": "Point", "coordinates": [ -73.183819, 44.489159 ] } },
{ "type": "Feature", "properties": { "TYPE": "G", "NAME": "Winooski Gorge", "WIDTH": 500, "DROP_": 0, "SLOPE": 0, "WALLHT": 80, "RAREPLANT": "Y", "FLOWREG": null, "PRIVACY": 2, "TIDY": 1, "SWIM": 0 }, "geometry": { "type": "Point", "coordinates": [ -73.168138, 44.489034 ] } },
{ "type": "Feature", "properties": { "TYPE": "W", "NAME": "Benjamin Falls", "WIDTH": 30, "DROP_": 50, "SLOPE": 0, "WALLHT": 0, "RAREPLANT": "N", "FLOWREG": null, "PRIVACY": 2, "TIDY": 1, "SWIM": 0 }, "geometry": { "type": "Point", "coordinates": [ -72.563773, 44.226744 ] } },
{ "type": "Feature", "properties": { "TYPE": "C", "NAME": "Northfield Falls", "WIDTH": 20, "DROP_": 15, "SLOPE": 0, "WALLHT": 0, "RAREPLANT": "N", "FLOWREG": null, "PRIVACY": 1, "TIDY": 2, "SWIM": 0 }, "geometry": { "type": "Point", "coordinates": [ -72.654513, 44.173539 ] } },
{ "type": "Feature", "properties": { "TYPE": "C", "NAME": "Bethel Falls", "WIDTH": 70, "DROP_": 0, "SLOPE": 0, "WALLHT": 0, "RAREPLANT": "N", "FLOWREG": null, "PRIVACY": 0, "TIDY": 3, "SWIM": 0 }, "geometry": { "type": "Point", "coordinates": [ -72.631204, 43.828006 ] } },
{ "type": "Feature", "properties": { "TYPE": "C", "NAME": "Crystal Cascade", "WIDTH": 50, "DROP_": 70, "SLOPE": 0, "WALLHT": 0, "RAREPLANT": "N", "FLOWREG": "N", "PRIVACY": 5, "TIDY": 2, "SWIM": 1 }, "geometry": { "type": "Point", "coordinates": [ -72.470515, 43.433063 ] } }
]
}
